<?xml version="1.0" encoding="utf-8"?>
<ArrayOfVolunteer xmlns:xsi="http://www.w3.org/2001/XMLSchema-instance" xmlns:xsd="http://www.w3.org/2001/XMLSchema">
  <Volunteer>
    <Id>215553504</Id>
    <FullName>Nechami</FullName>
    <Phone>0525381648</Phone>
    <Email>Nechami@gmail.com</Email>
    <IsActive>true</IsActive>
    <MyPosition>Manager</MyPosition>
    <Password>5555</Password>
    <CurrentAddress>Hatikva 6</CurrentAddress>
    <Latitude>31.95824</Latitude>
    <Longitude>34.879992</Longitude>
    <MaxDistance>10</MaxDistance>
    <MyDistance>Air</MyDistance>
  </Volunteer>
  <Volunteer>
    <Id>605656537</Id>
    <FullName>Danah Cohen</FullName>
    <Phone>0504142102</Phone>
    <Email>DanahCohen@gmail.com</Email>
    <IsActive>true</IsActive>
    <MyPosition>Volunteer</MyPosition>
    <Password>4210</Password>
    <CurrentAddress>Herzl St 1, Tel Aviv</CurrentAddress>
    <Latitude>32.0595</Latitude>
    <Longitude>34.7705</Longitude>
    <MaxDistance>19</MaxDistance>
    <MyDistance>Air</MyDistance>
  </Volunteer>
  <Volunteer>
    <Id>852170240</Id>
    <FullName>Yossi Levi</FullName>
    <Phone>0533128532</Phone>
    <Email>YossiLevi@gmail.com</Email>
    <IsActive>true</IsActive>
    <MyPosition>Volunteer</MyPosition>
    <Password>2853</Password>
    <CurrentAddress>Ben Yehuda St 10, Haifa</CurrentAddress>
    <Latitude>32.8195</Latitude>
    <Longitude>34.9983</Longitude>
    <MaxDistance>18</MaxDistance>
    <MyDistance>Air</MyDistance>
  </Volunteer>
  <Volunteer>
    <Id>639825686</Id>
    <FullName>Michal Rosenberg</FullName>
    <Phone>0527648207</Phone>
    <Email>MichalRosenberg@gmail.com</Email>
    <IsActive>true</IsActive>
    <MyPosition>Volunteer</MyPosition>
    <Password>4820</Password>
    <CurrentAddress>Hanevi'im St 15, Jerusalem</CurrentAddress>
    <Latitude>31.7857</Latitude>
    <Longitude>35.2208</Longitude>
    <MaxDistance>12</MaxDistance>
    <MyDistance>Air</MyDistance>
  </Volunteer>
  <Volunteer>
    <Id>590901518</Id>
    <FullName>Alon Goldstein</FullName>
    <Phone>0556784521</Phone>
    <Email>AlonGoldstein@gmail.com</Email>
    <IsActive>true</IsActive>
    <MyPosition>Volunteer</MyPosition>
    <Password>8452</Password>
    <CurrentAddress>Rothschild Blvd 50, Tel Aviv</CurrentAddress>
    <Latitude>32.0633</Latitude>
    <Longitude>34.7735</Longitude>
    <MaxDistance>18</MaxDistance>
    <MyDistance>Air</MyDistance>
  </Volunteer>
  <Volunteer>
    <Id>963951819</Id>
    <FullName>Shira Peled</FullName>
    <Phone>0546587412</Phone>
    <Email>ShiraPeled@gmail.com</Email>
    <IsActive>true</IsActive>
    <MyPosition>Volunteer</MyPosition>
    <Password>8741</Password>
    <CurrentAddress>Jabotinsky St 125, Ramat Gan</CurrentAddress>
    <Latitude>32.0885</Latitude>
    <Longitude>34.8037</Longitude>
    <MaxDistance>13</MaxDistance>
    <MyDistance>Air</MyDistance>
  </Volunteer>
  <Volunteer>
    <Id>255336760</Id>
    <FullName>Roi Barak</FullName>
    <Phone>0527684698</Phone>
    <Email>RoiBarak@gmail.com</Email>
    <IsActive>true</IsActive>
    <MyPosition>Volunteer</MyPosition>
    <Password>8469</Password>
    <CurrentAddress>King George St 20, Jerusalem</CurrentAddress>
    <Latitude>31.7762</Latitude>
    <Longitude>35.2137</Longitude>
    <MaxDistance>11</MaxDistance>
    <MyDistance>Air</MyDistance>
  </Volunteer>
  <Volunteer>
    <Id>612332221</Id>
    <FullName>Netta Shemesh</FullName>
    <Phone>0527612233</Phone>
    <Email>NettaShemesh@gmail.com</Email>
    <IsActive>true</IsActive>
    <MyPosition>Volunteer</MyPosition>
    <Password>1223</Password>
    <CurrentAddress>Allenby St 45, Tel Aviv</CurrentAddress>
    <Latitude>32.0641</Latitude>
    <Longitude>34.7698</Longitude>
    <MaxDistance>9</MaxDistance>
    <MyDistance>Air</MyDistance>
  </Volunteer>
  <Volunteer>
    <Id>407664853</Id>
    <FullName>Tomer Saban</FullName>
    <Phone>0527695898</Phone>
    <Email>TomerSaban@gmail.com</Email>
    <IsActive>true</IsActive>
    <MyPosition>Volunteer</MyPosition>
    <Password>9589</Password>
    <CurrentAddress>Bialik St 7, Ramat Gan</CurrentAddress>
    <Latitude>32.0827</Latitude>
    <Longitude>34.8235</Longitude>
    <MaxDistance>8</MaxDistance>
    <MyDistance>Air</MyDistance>
  </Volunteer>
  <Volunteer>
    <Id>890530835</Id>
    <FullName>Lian Bloch</FullName>
    <Phone>0546581256</Phone>
    <Email>LianBloch@gmail.com</Email>
    <IsActive>true</IsActive>
    <MyPosition>Volunteer</MyPosition>
    <Password>8125</Password>
    <CurrentAddress>Dizengoff St 100, Tel Aviv</CurrentAddress>
    <Latitude>32.0758</Latitude>
    <Longitude>34.7742</Longitude>
    <MaxDistance>2</MaxDistance>
    <MyDistance>Air</MyDistance>
  </Volunteer>
  <Volunteer>
    <Id>578539355</Id>
    <FullName>Ido Melamed</FullName>
    <Phone>0527612589</Phone>
    <Email>IdoMelamed@gmail.com</Email>
    <IsActive>true</IsActive>
    <MyPosition>Volunteer</MyPosition>
    <Password>1258</Password>
    <CurrentAddress>Weizmann St 5, Rehovot</CurrentAddress>
    <Latitude>31.8947</Latitude>
    <Longitude>34.8112</Longitude>
    <MaxDistance>8</MaxDistance>
    <MyDistance>Air</MyDistance>
  </Volunteer>
  <Volunteer>
    <Id>680082534</Id>
    <FullName>Yael Peretz</FullName>
    <Phone>0527648693</Phone>
    <Email>YaelPeretz@gmail.com</Email>
    <IsActive>true</IsActive>
    <MyPosition>Volunteer</MyPosition>
    <Password>4869</Password>
    <CurrentAddress>Yehuda Halevi St 30, Tel Aviv</CurrentAddress>
    <Latitude>32.0622</Latitude>
    <Longitude>34.7701</Longitude>
    <MaxDistance>17</MaxDistance>
    <MyDistance>Air</MyDistance>
  </Volunteer>
  <Volunteer>
    <Id>201438678</Id>
    <FullName>Eliyah Kahanov</FullName>
    <Phone>0527631459</Phone>
    <Email>EliyahKahanov@gmail.com</Email>
    <IsActive>true</IsActive>
    <MyPosition>Volunteer</MyPosition>
    <Password>3145</Password>
    <CurrentAddress>Hertzl St 10, Beer Sheva</CurrentAddress>
    <Latitude>31.2518</Latitude>
    <Longitude>34.7913</Longitude>
    <MaxDistance>11</MaxDistance>
    <MyDistance>Air</MyDistance>
  </Volunteer>
  <Volunteer>
    <Id>678719766</Id>
    <FullName>Maya Hershkowitz</FullName>
    <Phone>0527638520</Phone>
    <Email>MayaHershkowitz@gmail.com</Email>
    <IsActive>true</IsActive>
    <MyPosition>Volunteer</MyPosition>
    <Password>3852</Password>
    <CurrentAddress>Sokolov St 15, Herzliya</CurrentAddress>
    <Latitude>32.1663</Latitude>
    <Longitude>34.8426</Longitude>
    <MaxDistance>2</MaxDistance>
    <MyDistance>Air</MyDistance>
  </Volunteer>
  <Volunteer>
    <Id>421671066</Id>
    <FullName>Gilad Oren</FullName>
    <Phone>0527641120</Phone>
    <Email>GiladOren@gmail.com</Email>
    <IsActive>true</IsActive>
    <MyPosition>Volunteer</MyPosition>
    <Password>4112</Password>
    <CurrentAddress>Begin Blvd 8, Ashdod</CurrentAddress>
    <Latitude>31.8025</Latitude>
    <Longitude>34.6457</Longitude>
    <MaxDistance>8</MaxDistance>
    <MyDistance>Air</MyDistance>
  </Volunteer>
  <Volunteer>
    <Id>245068002</Id>
    <FullName>Efrat Kaplan</FullName>
    <Phone>0527648965</Phone>
    <Email>EfratKaplan@gmail.com</Email>
    <IsActive>true</IsActive>
    <MyPosition>Volunteer</MyPosition>
    <Password>4896</Password>
    <CurrentAddress>Ben Gurion St 1, Bat Yam</CurrentAddress>
    <Latitude>32.0153</Latitude>
    <Longitude>34.7504</Longitude>
    <MaxDistance>10</MaxDistance>
    <MyDistance>Air</MyDistance>
  </Volunteer>
</ArrayOfVolunteer>